{
   "html_attributions" : [],
   "next_page_token" : "CpQCAwEAANF9zarUZl7u02IFw0H8MKy7_UgW3D_6jPnSFAm0GK-BicIlfLuSLE99NA5P60j1_d1JKEr1-dxSl7zCkPMSKcX-pyRVl_R6YS1rJF0rgQtZSJ5PRZLz0JNhCqGrpvXwSgm7mwQnusWxrrRLtkvgJSBVjQ6vasfh0KQiJ2CWzSJhHL7RxlfioTM5Y6VssmdhoS2d4G8TxGb6cxA2upRoE1CsWVa9SqrLbro_TbxVPa2XdQVUOoE3Gw8-BMmbT8dFT5eJZD9PlfRzM9oHi-g0khXhGBrPIEAyKSALAFOtjir7b_7YBuTsLBfbijc9KayENXLAwjhbWI21C228AXCLQFEslkY-Nr2YrsIplbzgIox0EhAA-bsfDrnZ2LcH6AmkQg04GhQ8GsGXoN2_GSGZ659e7AVL-8LkMw",
   "results" : [
      {
         "geometry" : {
            "location" : {
               "lat" : 53.7179685,
               "lng" : 19.3402211
            },
            "viewport" : {
               "northeast" : {
                  "lat" : 53.7192816302915,
                  "lng" : 19.3414915302915
               },
               "southwest" : {
                  "lat" : 53.7165836697085,
                  "lng" : 19.3387935697085
               }
            }
         },
         "icon" : "https://maps.gstatic.com/mapfiles/place_api/icons/worship_general-71.png",
         "id" : "0eccc48739cada88aca290a6f70ed12ea1451f4c",
         "name" : "Kościół pw. Św. Antoniego z Padwy",
         "photos" : [
            {
               "height" : 1944,
               "html_attributions" : [
                  "\u003ca href=\"https://maps.google.com/maps/contrib/100143930026357453436/photos\"\u003eAdam Mierzejewski\u003c/a\u003e"
               ],
               "photo_reference" : "CoQBdwAAALxIzrsKcB5pSBnMEUlT8q4Lclf1oOf7hiUS-tnhk5GxKAR3D9XRhgWTVMYv-203xOXeZmGPOhUtxZfkB5duDkkb0A6kPi8GvEtF6hVOWbOxpaAIIK3PJcwhumOeyOg8XS0WH4hrUjzr-OaYCnInqZBZezm-LNypG6sOVjlcO4BeEhCoWEv_S8oUruZWwTny5G6eGhTs727RqFhhkmz1hFLe2lxhi-622g",
               "width" : 2592
            }
         ],
         "place_id" : "ChIJ5zr-uEBOHUcRD53cZUU5Qlo",
         "rating" : 5,
         "reference" : "CmRRAAAA7ugIAYZj1Bd9jgPmaCWJODSQFZUJwpqkEGwYHeQAl3fxxEqaHanXBtsOCvHcLuM6gqFFYkhjsuwtPooHO_MNTVeiaPPotVNaVK7qFFRkwlsEQYm_wsQ-gbCCevIlVEpHEhCJtx0sgqySdtvhfXAdnXZdGhSjSFMehV4nqaGqAU7c3NF93Hj-_g",
         "scope" : "GOOGLE",
         "types" : [ "church", "place_of_worship", "point_of_interest", "establishment" ],
         "vicinity" : "Kościelna 6, Susz"
      },
      {
         "geometry" : {
            "location" : {
               "lat" : 53.7581692,
               "lng" : 19.196775
            },
            "viewport" : {
               "northeast" : {
                  "lat" : 53.75951818029149,
                  "lng" : 19.1981239802915
               },
               "southwest" : {
                  "lat" : 53.75682021970849,
                  "lng" : 19.1954260197085
               }
            }
         },
         "icon" : "https://maps.gstatic.com/mapfiles/place_api/icons/worship_general-71.png",
         "id" : "d64a51e11b438824d1277bc1811cf2c2a702213e",
         "name" : "Kościół pw. Św. Wojciecha",
         "photos" : [
            {
               "height" : 4128,
               "html_attributions" : [
                  "\u003ca href=\"https://maps.google.com/maps/contrib/104866762542443099185/photos\"\u003eGrzegorz Sosnowski\u003c/a\u003e"
               ],
               "photo_reference" : "CoQBdwAAACnCyg4_S6d3SM4HwhaHxD_ogVaSXk_oePR_w1zaYKNlVUHM0a3f1UGdAWJdu0cpS1bp2PjqLU0VyT-WeGUNPIqVmT10AAxoH_2Rzv2ktaZj0kam1ZQ5OHAUZDtu5iiakDSRVGefD814plK-OR67FmdfjMLsUXnIyVUSwGHU1QlYEhCPcqBjXaSk-jP6FRjFvZoFGhQtCMNz9rUy3eUXo2aeEUWipORx-w",
               "width" : 2322
            }
         ],
         "place_id" : "ChIJd3NmEVFNHUcRV56kK9gZWz4",
         "rating" : 5,
         "reference" : "CmRRAAAADSluzypb6_HB_llOqPdI6F0fxAiSGRBsmZcreFIpIZbCJl9rMKnYRKuCGmYmCxLGTWPVsOzsvJ8Nxr9I3eia79cz4qjWp4s9c4wJXPNXXxyH-Hsh2WkNKHG8T4MUk59aEhBhU0BaQjp5TA82tEDOVz83GhTrZ-PMpa6HyiBDVeRQkOWotapipQ",
         "scope" : "GOOGLE",
         "types" : [ "church", "place_of_worship", "point_of_interest", "establishment" ],
         "vicinity" : "Plac Katedralny, Prabuty"
      },
      {
         "geometry" : {
            "location" : {
               "lat" : 53.75587309999999,
               "lng" : 19.2015912
            },
            "viewport" : {
               "northeast" : {
                  "lat" : 53.75732243029149,
                  "lng" : 19.2030999302915
               },
               "southwest" : {
                  "lat" : 53.7546244697085,
                  "lng" : 19.2004019697085
               }
            }
         },
         "icon" : "https://maps.gstatic.com/mapfiles/place_api/icons/worship_general-71.png",
         "id" : "a7e9429d6fce1db729dc382699fb1c000fb02109",
         "name" : "Kościół pw. św. Andrzeja Apostoła",
         "place_id" : "ChIJYQJPeVBNHUcRjbbLjO54WbA",
         "reference" : "CmRSAAAAkeh34osZq_vZzxbGY3nj116p-srKmJxGYvnOmVyO2wACO700Nt3eutGa_O6zos3CpSpLdGYywEd3jRqf7gfojNLnZPD30n6ZWerf9pwaVP55d5jdqIbwwRo42ygl2ws0EhCTNKzgwIC-RxUk4RuE4BzNGhQoBTSya64QnPpVStP4Yqda6GEtNQ",
         "scope" : "GOOGLE",
         "types" : [ "church", "place_of_worship", "point_of_interest", "establishment" ],
         "vicinity" : "Warszawska 12, Prabuty"
      },
      {
         "geometry" : {
            "location" : {
               "lat" : 53.63740379999999,
               "lng" : 19.4579673
            },
            "viewport" : {
               "northeast" : {
                  "lat" : 53.6387527802915,
                  "lng" : 19.45931628029151
               },
               "southwest" : {
                  "lat" : 53.6360548197085,
                  "lng" : 19.4566183197085
               }
            }
         },
         "icon" : "https://maps.gstatic.com/mapfiles/place_api/icons/generic_business-71.png",
         "id" : "dbda958494e4d9788abbc0161c53c9ee189298a6",
         "name" : "Parafia rzymskokatolicka",
         "photos" : [
            {
               "height" : 5312,
               "html_attributions" : [
                  "\u003ca href=\"https://maps.google.com/maps/contrib/112194889073901607779/photos\"\u003eKarolina Dereszowa\u003c/a\u003e"
               ],
               "photo_reference" : "CoQBdwAAAIHNcdyR6bEIZq6-HPGIarkTC7BQdRA5ZfOWfOkGqv6o6CtZ1Ia55a7NIjH-FhgQ4bI9gXKvegmc08pJTjmlZl-gGeKPE7jGDgoL_7QM2xwJZCVVVuAukd8YIV5gZR7oaetOMxBJW6IzbJKmC2Z8Um85dO91NiB7wzo9CITV_tOCEhAgt4pHMeGI1jHOXNPjLqPAGhQt507p2UBMkV_PYtQMP5ecFfoyLA",
               "width" : 2988
            }
         ],
         "place_id" : "ChIJT_oceylEHUcRPTFnxXENeyc",
         "reference" : "CmRRAAAAgSl81xDF7l12TDQel1J1Oo7UOBXldnUW2FqDIB7lM3XtG_6tE5UCb4OVq0T6bWEbSkOxFBmqNHpAlrf4Z1vV3dhpqjpXottGTTW-UBhotkUiMIPAxLW3MpO44qN61QAbEhB5W-3Kr1BjoidNEDzqCDmhGhS00NK_pTqs4wY80Y2h68NMKUQ5cQ",
         "scope" : "GOOGLE",
         "types" : [ "church", "place_of_worship", "point_of_interest", "establishment" ],
         "vicinity" : "Ząbrowo"
      },
      {
         "geometry" : {
            "location" : {
               "lat" : 53.5991396,
               "lng" : 19.4368744
            },
            "viewport" : {
               "northeast" : {
                  "lat" : 53.6004885802915,
                  "lng" : 19.4382233802915
               },
               "southwest" : {
                  "lat" : 53.5977906197085,
                  "lng" : 19.4355254197085
               }
            }
         },
         "icon" : "https://maps.gstatic.com/mapfiles/place_api/icons/generic_business-71.png",
         "id" : "5bd7f721e28432190a3375b00931e07e067671cd",
         "name" : "Parafia rzymskokatolicka",
         "place_id" : "ChIJgxtoh_xGHUcRo1lngGhvHmk",
         "reference" : "CmRRAAAAD9SzAw3lMW1I7sgpG3vxS1W6FbIcXK-LvP3ZG1sQETvE-mjuS-bYmVP2PbyuyW-nEFvEAyHmM9rcyX7IkLuQDvlWBwEDElwCmN2zIM8tYwFZJxeFXdp0XiWwxLRgmgpjEhDRlM1ojJj6UVsTFzAQPgnOGhQiDEEDDuzfvTIVPvwKZloS9npEKQ",
         "scope" : "GOOGLE",
         "types" : [ "church", "place_of_worship", "point_of_interest", "establishment" ],
         "vicinity" : "14-211 Laseczno; 45, Henryka Sienkiewicza"
      },
      {
         "geometry" : {
            "location" : {
               "lat" : 53.54507589999999,
               "lng" : 19.407212
            },
            "viewport" : {
               "northeast" : {
                  "lat" : 53.54642488029149,
                  "lng" : 19.4085609802915
               },
               "southwest" : {
                  "lat" : 53.5437269197085,
                  "lng" : 19.40586301970849
               }
            }
         },
         "icon" : "https://maps.gstatic.com/mapfiles/place_api/icons/generic_business-71.png",
         "id" : "4b39153dd8b264a524221c4d37f1df09b68485f5",
         "name" : "Parafia rzymskokatolicka św. Mikołaja",
         "place_id" : "ChIJeSj8A5s4HUcR3cIkcPHb9OU",
         "reference" : "CmRSAAAAfH2W9eAuHyPlzdyxh48JGDfAv-G8U_1xhQvPGakkSHw5Qr_8KjPuNNkfkD_FNbbJMihMs7CH1CS3R6HSRzvSMrNUKA_w_LD-tNKdVnNjBa_VOFTqbysb3L14RzGQ6QmUEhC5i56RuH0NJ4-X-LD-mEkyGhSYugLYXqEdgwgGMi9s2HC6mTvq7A",
         "scope" : "GOOGLE",
         "types" : [ "church", "place_of_worship", "point_of_interest", "establishment" ],
         "vicinity" : "Szwarcenowo; 69"
      },
      {
         "geometry" : {
            "location" : {
               "lat" : 53.56137569999999,
               "lng" : 19.500836
            },
            "viewport" : {
               "northeast" : {
                  "lat" : 53.56272468029149,
                  "lng" : 19.5021849802915
               },
               "southwest" : {
                  "lat" : 53.56002671970849,
                  "lng" : 19.49948701970849
               }
            }
         },
         "icon" : "https://maps.gstatic.com/mapfiles/place_api/icons/generic_business-71.png",
         "id" : "05e21f8ced1d0c9eba234bdf8b4d8be89f67d6ba",
         "name" : "Parafia rzymskokatolicka Najświętszego Serca Pana Jezusa",
         "place_id" : "ChIJzeaUDOpAHUcRq4EFStsVofM",
         "reference" : "CmRSAAAAloeZ6XfzbMGsI_sdxRxjZvgAwNtuip7xJhhqwB9pu8Nr3Oyln2wb-simEBrHh1363o75PWiAmRnsQSNGtl9mYvz33G6tE5MDA3CFL5PdGzO79_cS3Auue2GaksBUp_TGEhBLDstdJqOGrGVD36UZwyZqGhTOVdk8ayybkwE_eFZUUyRfLJ1pow",
         "scope" : "GOOGLE",
         "types" : [ "church", "place_of_worship", "point_of_interest", "establishment" ],
         "vicinity" : "24a, Karaś"
      },
      {
         "geometry" : {
            "location" : {
               "lat" : 53.67676429999999,
               "lng" : 19.2824972
            },
            "viewport" : {
               "northeast" : {
                  "lat" : 53.6781132802915,
                  "lng" : 19.2838461802915
               },
               "southwest" : {
                  "lat" : 53.6754153197085,
                  "lng" : 19.2811482197085
               }
            }
         },
         "icon" : "https://maps.gstatic.com/mapfiles/place_api/icons/worship_general-71.png",
         "id" : "5705d654d45b0854193c38a101af2d5624265f9b",
         "name" : "Kościół pw. Świętej Rodziny i Matki Boskiej",
         "place_id" : "ChIJc9lKlaROHUcRFl-CasYQlFs",
         "reference" : "CmRRAAAA13O1gaZMVqByrULLiBBEAOWhL80JiM6VXxo3pz0jNPfvh3r4WcExmfWsEpJBIYON-NwgU6GmRtMs8hLl5z2DtR7MwxpDYry9ULCzGjlxjLUhyoL-EJTBtc4zB_Oz0bJ6EhBrhmv8JM9cFUf6wr8kPT5iGhRGambqIE5b3mNhLvWpmu4O1-3rkg",
         "scope" : "GOOGLE",
         "types" : [ "church", "place_of_worship", "point_of_interest", "establishment" ],
         "vicinity" : "Bałoszyce Małe, Bałoszyce 19"
      },
      {
         "geometry" : {
            "location" : {
               "lat" : 53.6761067,
               "lng" : 19.1686418
            },
            "viewport" : {
               "northeast" : {
                  "lat" : 53.6774177802915,
                  "lng" : 19.1702268302915
               },
               "southwest" : {
                  "lat" : 53.6747198197085,
                  "lng" : 19.1675288697085
               }
            }
         },
         "icon" : "https://maps.gstatic.com/mapfiles/place_api/icons/worship_general-71.png",
         "id" : "4fcccdbc7196048f89ff426daf48c68f05de31e8",
         "name" : "Kościół Trójcy Przenajświęszej",
         "place_id" : "ChIJL0nAZ2FLHUcRx7LclLVV-gQ",
         "reference" : "CmRRAAAA3DzgfFwduGo4AAML_UV9ueJxe0UW2NXLRQiYjxBiOqrCTUlN3k0jHEAgKkHQ9Wl8ZHRAclhb2SzBQoApH0SFxoyuazZ0Jkd18kR_ab8tSCihgtGLXIxgn5fCuZYvutTMEhC7nEGbeYZKopP3CcklRYwUGhQLQLPLR8MNJffb1ouq3YM5y8O1hA",
         "scope" : "GOOGLE",
         "types" : [ "church", "place_of_worship", "point_of_interest", "establishment" ],
         "vicinity" : "Droga Wojewódzka 522 16, Trumiejki"
      },
      {
         "geometry" : {
            "location" : {
               "lat" : 53.63364319999999,
               "lng" : 19.143666
            },
            "viewport" : {
               "northeast" : {
                  "lat" : 53.63501738029149,
                  "lng" : 19.1447320802915
               },
               "southwest" : {
                  "lat" : 53.63231941970849,
                  "lng" : 19.1420341197085
               }
            }
         },
         "icon" : "https://maps.gstatic.com/mapfiles/place_api/icons/worship_general-71.png",
         "id" : "e854c03befb902d3bd97608582d72ad77f8d5218",
         "name" : "Kościół p.w. Chrystusa Króla",
         "place_id" : "ChIJgxaKgeRKHUcRxoSLQAPs1tU",
         "reference" : "CmRSAAAAG5GD2UfV__6HbUr8goTvAQN7u4xpRKioeEeCdbq3aGl1s1E_o4dBFajNRVwFBnt7bAAaZvUzMpJLKn92QhE726wJiNHrIbNla5P5B45a_qli93GLh8tUZCMgrSU6hc0hEhA2ROjS_Pcqwv0_swmxlRSyGhQRhd4zDo4kIvEV3u1E0k-fMwwI3A",
         "scope" : "GOOGLE",
         "types" : [ "church", "place_of_worship", "point_of_interest", "establishment" ],
         "vicinity" : "Trumieje, Droga Wojewódzka 523"
      },
      {
         "geometry" : {
            "location" : {
               "lat" : 53.6219775,
               "lng" : 19.4033468
            },
            "viewport" : {
               "northeast" : {
                  "lat" : 53.6233264802915,
                  "lng" : 19.4046957802915
               },
               "southwest" : {
                  "lat" : 53.6206285197085,
                  "lng" : 19.4019978197085
               }
            }
         },
         "icon" : "https://maps.gstatic.com/mapfiles/place_api/icons/worship_general-71.png",
         "id" : "7cb0b02f33c55bbe9968cb49177c5bd35c6d2ba3",
         "name" : "Kościół p.w. św. Wojciecha",
         "place_id" : "ChIJDeOO0hRGHUcRTnZMwbIShFI",
         "reference" : "CmRRAAAAbvM-5obJWIfPbqqJuaWSSaOvjZYOVqUZgaZpU8U1Qj9Swu_2x_c8BJwaVrbPAGGk6MwJCwEfnanqCdyv6-bGnjxb6FZGKx6UKC5SMji0pHXa3m63t_OTsdzqkYSHXxaUEhBiuYcNxMdip3JrnyZEuKcpGhQGt6CE4hx1Sif3bdudWNrtO6-mCw",
         "scope" : "GOOGLE",
         "types" : [ "church", "place_of_worship", "point_of_interest", "establishment" ],
         "vicinity" : "Gałdowo"
      },
      {
         "geometry" : {
            "location" : {
               "lat" : 53.6807787,
               "lng" : 19.0850759
            },
            "viewport" : {
               "northeast" : {
                  "lat" : 53.68212768029149,
                  "lng" : 19.0864248802915
               },
               "southwest" : {
                  "lat" : 53.67942971970849,
                  "lng" : 19.0837269197085
               }
            }
         },
         "icon" : "https://maps.gstatic.com/mapfiles/place_api/icons/worship_general-71.png",
         "id" : "dc52cd567c2afdcf2f744d9088cfa3a053e5badf",
         "name" : "Kościół p.w. Najświętszej Marii Panny",
         "place_id" : "ChIJbYGUMpe0AkcRbYkVcz5C1qs",
         "rating" : 5,
         "reference" : "CmRSAAAANHguEp1eIAb7DMkia-TAj0X_atbqunHmY_DgfKoe3jHC66tbmhIIHMM4QPeqLsYFl73c-WrhfR2vQDyTigzzGbmDsfkhA5mtWHvX4dHYPZGLVDwSjX0ZqT6acfN_C0u2EhD2nOCPpKYD2s1DpZ_S0EH-GhT1mqjx_he5ZoI7S-vh-dk5aTe9fA",
         "scope" : "GOOGLE",
         "types" : [ "church", "place_of_worship", "point_of_interest", "establishment" ],
         "vicinity" : "Nowa Wioska"
      },
      {
         "geometry" : {
            "location" : {
               "lat" : 53.7777712,
               "lng" : 19.2624431
            },
            "viewport" : {
               "northeast" : {
                  "lat" : 53.7791201802915,
                  "lng" : 19.2637920802915
               },
               "southwest" : {
                  "lat" : 53.7764222197085,
                  "lng" : 19.2610941197085
               }
            }
         },
         "icon" : "https://maps.gstatic.com/mapfiles/place_api/icons/worship_general-71.png",
         "id" : "45e7cee5092dea1544e336c1847ded44b3939717",
         "name" : "Kościół pw. Matki Bożej Anielskiej",
         "place_id" : "ChIJSc9WrvRSHUcRajObdcu_eCQ",
         "reference" : "CmRRAAAAuCnmll62QPb3oEDHozlXhfsOl2rqpz_pTnGNDov4vrnYLgBrNpyyzeB6AQ8Nz0Nb4FNaT2V062JSP3bpdSH3Ht1tSEawLbEDvKBYc4rzUViu4A6y4_9OhK8yGlcxmHTIEhBL_HyJ0JWdm4V01T8lE5I_GhQa5spZQen1KTEEk_SQXA0L2ve1hw",
         "scope" : "GOOGLE",
         "types" : [ "church", "place_of_worship", "point_of_interest", "establishment" ],
         "vicinity" : "Rodowo Małe, Obrzynowo 52"
      },
      {
         "geometry" : {
            "location" : {
               "lat" : 53.58206029999999,
               "lng" : 19.1016197
            },
            "viewport" : {
               "northeast" : {
                  "lat" : 53.5834092802915,
                  "lng" : 19.1029686802915
               },
               "southwest" : {
                  "lat" : 53.5807113197085,
                  "lng" : 19.1002707197085
               }
            }
         },
         "icon" : "https://maps.gstatic.com/mapfiles/place_api/icons/worship_general-71.png",
         "id" : "8159e40480b706c4a6e2127d6ab24f8aea8e3d2e",
         "name" : "Kościół Narodzenia NMP",
         "place_id" : "ChIJ5YQteWw1HUcR5o-pfBArGu8",
         "reference" : "CmRSAAAA3JKYxEC_bwQofnQ3jqX-Ehyz9qp8sM-KuLRl1tORzs-jaiItyjmRx_SOwjKTswm8kRpGtrW3ZXFmGSHvhxPylBc9kKkcaCKNYVp9ds3VX6_aMZQjKuKH3bh7SBQM7YEYEhDxE-wtfJQeGSMe0JepOxABGhRfIDGEc8NjnNfDUd5IdM0R2-rDag",
         "scope" : "GOOGLE",
         "types" : [ "church", "place_of_worship", "point_of_interest", "establishment" ],
         "vicinity" : "Szynwałd"
      },
      {
         "geometry" : {
            "location" : {
               "lat" : 53.6374854,
               "lng" : 19.4588095
            },
            "viewport" : {
               "northeast" : {
                  "lat" : 53.63883438029149,
                  "lng" : 19.4601584802915
               },
               "southwest" : {
                  "lat" : 53.63613641970849,
                  "lng" : 19.45746051970849
               }
            }
         },
         "icon" : "https://maps.gstatic.com/mapfiles/place_api/icons/worship_general-71.png",
         "id" : "ee6e5e246d7230b6e295685ba8851b36fb4c5fb7",
         "name" : "Kościół p.w. Zesłania Ducha Świętego",
         "place_id" : "ChIJrxjfACxEHUcRZcEXXtvWWeY",
         "reference" : "CmRSAAAAw9958WwqGhfn3hHG4Iz9hpu_ntu0lB4CP0Yg6DGe5FySgGP1rxAqvHExbZmNA5Ojn7dhcveuNTyBin-INc3rC8UWK5IKXy4q1VvnSjeGmiCrf-M4NFn_uHNS6nbnXg7BEhDk-5gTFByrqIHPRwIW58wIGhQSVwjz36xGyE8kSh3c24GlrhLy6Q",
         "scope" : "GOOGLE",
         "types" : [ "church", "place_of_worship", "point_of_interest", "establishment" ],
         "vicinity" : "Ząbrowo - Kamionka 31, Ząbrowo"
      },
      {
         "geometry" : {
            "location" : {
               "lat" : 53.74442819999999,
               "lng" : 19.4174606
            },
            "viewport" : {
               "northeast" : {
                  "lat" : 53.7457771802915,
                  "lng" : 19.4188095802915
               },
               "southwest" : {
                  "lat" : 53.7430792197085,
                  "lng" : 19.4161116197085
               }
            }
         },
         "icon" : "https://maps.gstatic.com/mapfiles/place_api/icons/worship_general-71.png",
         "id" : "b8d4d4c31559dcfd0f7d11ec3987ed86c59c9a42",
         "name" : "Kościół pw. MB Różańcowej",
         "photos" : [
            {
               "height" : 1746,
               "html_attributions" : [
                  "\u003ca href=\"https://maps.google.com/maps/contrib/105949529309261685051/photos\"\u003eKara Iza\u003c/a\u003e"
               ],
               "photo_reference" : "CoQBdwAAAB0xLkTHipDAwlNbBY-o7b92MBWUFDQbEXwmOhR8ZM_Mw6yPyrtKsDGmoZiFsvTUc2thinJN-Fkq5xy9flrsp0C3jZT5V4bKW0gJwvKm0YQX5lqFBMIOeoR0ahb98L1dpVMb54bzf2gZLn6gsHvSw1VJzjkAVeZ6St6GpCmwkMCiEhBPNyfhD06C6UBaV0xw_1miGhR1maqjo-zNzczrOgNpOjUXwn6iiA",
               "width" : 3104
            }
         ],
         "place_id" : "ChIJkSZJODxQHUcRArfZidZe6Rg",
         "reference" : "CmRRAAAA2WUwQ4rmytmnbkDCWuS4mh8bKV6jW67HYy_4beh1ey2Ik73-yxQIxWpE6wk-8wHJRX07AStOsxNuvoth0REtKS4fJEPl0aNRKS3x6lYkILQRMo6AuLjd6nKF1XLjhCyyEhCm-KqoCv4TKS9Y0PZs55SbGhRDD0hqWtcMAE3k9-5LUwa8Hq9odw",
         "scope" : "GOOGLE",
         "types" : [ "church", "place_of_worship", "point_of_interest", "establishment" ],
         "vicinity" : "Olbrachtowo"
      },
      {
         "geometry" : {
            "location" : {
               "lat" : 53.59876750000001,
               "lng" : 19.4364362
            },
            "viewport" : {
               "northeast" : {
                  "lat" : 53.6001164802915,
                  "lng" : 19.4377851802915
               },
               "southwest" : {
                  "lat" : 53.5974185197085,
                  "lng" : 19.4350872197085
               }
            }
         },
         "icon" : "https://maps.gstatic.com/mapfiles/place_api/icons/worship_general-71.png",
         "id" : "339e0ced319311e3fc5a477accf23b8d2f5b7ecc",
         "name" : "Laseczno",
         "photos" : [
            {
               "height" : 3456,
               "html_attributions" : [
                  "\u003ca href=\"https://maps.google.com/maps/contrib/112548050478380540534/photos\"\u003eTomasz Jakubowski\u003c/a\u003e"
               ],
               "photo_reference" : "CoQBdwAAAOJfBL6qZUXbjiF90hqDAqmPnnSF7A79UodPf8of2Lv1n7CATskMmUDq-kzlXc5kdMM6tzSkZUsRyIuubkomsPBg2PtQ02BtjeFssAaUlUnkrg_MiWr0WJ-Y-Rcx3qIfUD0xps6HsSKKKIYZ-_8cEqUzgkZJm00_mkY2oGNoQZTiEhAdinpw77IEeVJsHMcFvNcBGhQ0RqclHN8MtEHGOvDuYzQ3hSv-HQ",
               "width" : 4608
            }
         ],
         "place_id" : "ChIJC8ygHftGHUcRYdMBd_rx5FI",
         "rating" : 5,
         "reference" : "CmRRAAAAUEJ5ZyZ_dbrFYL_uqfcace8_Ie649aHDY7ia3pnW1O1AC-UX94326GEV2AjyZkk1X5Q2tKosjvxq7a73eEHoCLMD2OSIukAv6YtJFbNPk5zaCK1KdeFw0pjD9pmS8NYwEhDcvVR4qNH0IqZI_D7N8eEEGhShVWcqyC9mttg-rxCxLxfpogELdw",
         "scope" : "GOOGLE",
         "types" : [ "church", "place_of_worship", "point_of_interest", "establishment" ],
         "vicinity" : "Laseczno 50"
      },
      {
         "geometry" : {
            "location" : {
               "lat" : 53.5252661,
               "lng" : 19.3417765
            },
            "viewport" : {
               "northeast" : {
                  "lat" : 53.5266150802915,
                  "lng" : 19.3431254802915
               },
               "southwest" : {
                  "lat" : 53.5239171197085,
                  "lng" : 19.3404275197085
               }
            }
         },
         "icon" : "https://maps.gstatic.com/mapfiles/place_api/icons/generic_business-71.png",
         "id" : "d754732477cb3c92618f0bbd846b3673588c214c",
         "name" : "Parafia rzymskokatolicka Podwyższenia Krzyża Świętego",
         "place_id" : "ChIJKfqfLk84HUcR1GTdahRsKZM",
         "reference" : "CmRSAAAADkYxg1X8a1qUpRg5Jb_oIGA3mowyvNzmoNYBBkzkBX8_wl9xyZU26Ck2v5RDnzTczamuRXG-404Sd_RIT8PJDsJslCtpaLeVi28he9ODxuQnoGg1nUguEjZRNutRkCDAEhC3TdFZkvb64aWfvtrA6kO0GhRG_siDCLsbviT7hbShTiuLXiZv1w",
         "scope" : "GOOGLE",
         "types" : [ "church", "place_of_worship", "point_of_interest", "establishment" ],
         "vicinity" : "Piotrowice"
      },
      {
         "geometry" : {
            "location" : {
               "lat" : 53.7275505,
               "lng" : 19.0239429
            },
            "viewport" : {
               "northeast" : {
                  "lat" : 53.72879418029149,
                  "lng" : 19.0252984302915
               },
               "southwest" : {
                  "lat" : 53.7260962197085,
                  "lng" : 19.0226004697085
               }
            }
         },
         "icon" : "https://maps.gstatic.com/mapfiles/place_api/icons/worship_general-71.png",
         "id" : "0e4407a1491560b306f99c0b406fa2c6cfa3f1b3",
         "name" : "Kościół p.w. św. Antoniego Padewskiego",
         "place_id" : "ChIJa0a26d-zAkcRcq5ohe55kxg",
         "reference" : "CmRRAAAACrolHBSZHHthmVsefbbC540NrzmaMuZc5dKADWENbaP7yAMYsLHz6C1yPAq279w2f1mFzhLcHxlHcpVjAvCpq4HvprgdQYx6aglsAAZphT2Q6M3UZiez4tGeRefjzZzkEhDgiNVs5WLbdgc4YAJeQ_MiGhRH_Gw47dfoShuAe6cjAasRtMz3aQ",
         "scope" : "GOOGLE",
         "types" : [ "church", "place_of_worship", "point_of_interest", "establishment" ],
         "vicinity" : "Kwidzyńska 26, Rakowiec"
      },
      {
         "geometry" : {
            "location" : {
               "lat" : 53.5447571,
               "lng" : 19.4068228
            },
            "viewport" : {
               "northeast" : {
                  "lat" : 53.5461060802915,
                  "lng" : 19.4081717802915
               },
               "southwest" : {
                  "lat" : 53.5434081197085,
                  "lng" : 19.40547381970849
               }
            }
         },
         "icon" : "https://maps.gstatic.com/mapfiles/place_api/icons/worship_general-71.png",
         "id" : "bcef7b29a070f2191bb7ea86692cad1ae13b17d2",
         "name" : "Kościół pw. św. Mikołaja",
         "place_id" : "ChIJNw0P9ps4HUcRG5lquz7paVQ",
         "rating" : 5,
         "reference" : "CmRRAAAAGoZAxxvz3sbMCRfaEdcPAjZ9msaSvq1TnaiAx0fAMsTYfjpgjGV2azpjGY-6164GSyNqjubYTDwlg9ynkM31qb1Ay1bOgXHfxLn0jRTGpJ8C9oBBmONsQGd8-rN5SMBSEhAwhm_SOOXNEomPPG5Z2j6RGhQj8wvOY6Xmv-lFbxnyaocNYxzSWA",
         "scope" : "GOOGLE",
         "types" : [ "church", "place_of_worship", "point_of_interest", "establishment" ],
         "vicinity" : "Szwarcenowo 68,, Szwarcenowo"
      }
   ],
   "status" : "OK"
}
